name,abstruct,lat,lon
"有馬温泉","有馬温泉（ありまおんせん）は、兵庫県神戸市北区有馬町（摂津国）にある日本三古湯の温泉。枕草子の三名泉にも数えられた。また、室町時代には万里集九が草津温泉や下呂温泉とともに「三名泉」とし、江戸時代には林羅山もこれらの三温泉を「天下の三名泉」と記した（日本三名泉）。江戸時代の温泉番付では当時の最高位である西大関に格付けされた。瀬戸内海国立公園の区域に隣接する。",34.7981,135.247
"鶴巻温泉","鶴巻温泉（つるまきおんせん）は神奈川県秦野市（旧国相模国）にある小規模な温泉郷である。最寄り駅は小田急電鉄小田原線の鶴巻温泉駅である。",35.3825,139.276
"旭岳温泉","旭岳温泉（あさひだけおんせん）は大雪山の主峰である旭岳の麓、北海道上川郡東川町にある温泉。大雪山の表玄関となっていて夏季は登山の拠点となる。特に高山植物の開花のシーズンと紅葉のシーズンは混雑する。冬季は、スキーの合宿地として利用される。",43.6478,142.788
"湯河原町","湯河原町（ゆがわらまち）は、神奈川県の南西部に位置し、足柄下郡に属する町。 湯河原温泉で有名な温泉町としてよく知られている。東海道本線が通る。古くから文豪、画家など多くの作家が逗留し創作の筆を執った。",35.1459,139.074
"湯河原町","湯河原町（ゆがわらまち）は、神奈川県の南西部に位置し、足柄下郡に属する町。 湯河原温泉で有名な温泉町としてよく知られている。東海道本線が通る。古くから文豪、画家など多くの作家が逗留し創作の筆を執った。",35.1479,139.074
"湯河原町","湯河原町（ゆがわらまち）は、神奈川県の南西部に位置し、足柄下郡に属する町。 湯河原温泉で有名な温泉町としてよく知られている。東海道本線が通る。古くから文豪、画家など多くの作家が逗留し創作の筆を執った。",35.1459,139.108
"湯河原町","湯河原町（ゆがわらまち）は、神奈川県の南西部に位置し、足柄下郡に属する町。 湯河原温泉で有名な温泉町としてよく知られている。東海道本線が通る。古くから文豪、画家など多くの作家が逗留し創作の筆を執った。",35.1479,139.108
"箱根温泉","箱根温泉（はこねおんせん）は、神奈川県足柄下郡箱根町にある、温泉の総称である。旧相模国の時代から湧出してきた温泉群に加えて、新たに掘削などによって開発された温泉も含まれる。この結果、箱根火山の麓から中腹まで、温泉街が点在している。なお、付近は富士箱根伊豆国立公園に指定されている。",35.2306,139.1
"道後温泉","道後温泉（どうごおんせん）は、四国・愛媛県松山市（旧国伊予国）に湧出する温泉である。日本三古湯の一つといわれる。 その存在は古代から知られ、万葉集巻一にも見える。なおかつてはこの周辺が温泉郡（おんせんぐん）（湯郡）と呼ばれていたが、これはこの温泉にちなむ地名である。 夏目漱石の小説『坊つちやん』（1905年）にも描かれ、愛媛県の代表的な観光地となっている。2007年8月に地域団体商標（地域ブランド）として認定された（申請者は道後温泉旅館協同組合、登録商標第5071495号）。",33.852,132.786
"道後温泉","道後温泉（どうごおんせん）は、四国・愛媛県松山市（旧国伊予国）に湧出する温泉である。日本三古湯の一つといわれる。 その存在は古代から知られ、万葉集巻一にも見える。なおかつてはこの周辺が温泉郡（おんせんぐん）（湯郡）と呼ばれていたが、これはこの温泉にちなむ地名である。 夏目漱石の小説『坊つちやん』（1905年）にも描かれ、愛媛県の代表的な観光地となっている。2007年8月に地域団体商標（地域ブランド）として認定された（申請者は道後温泉旅館協同組合、登録商標第5071495号）。",33.8521,132.786
"道後温泉","道後温泉（どうごおんせん）は、四国・愛媛県松山市（旧国伊予国）に湧出する温泉である。日本三古湯の一つといわれる。 その存在は古代から知られ、万葉集巻一にも見える。なおかつてはこの周辺が温泉郡（おんせんぐん）（湯郡）と呼ばれていたが、これはこの温泉にちなむ地名である。 夏目漱石の小説『坊つちやん』（1905年）にも描かれ、愛媛県の代表的な観光地となっている。2007年8月に地域団体商標（地域ブランド）として認定された（申請者は道後温泉旅館協同組合、登録商標第5071495号）。",33.852,132.786
"道後温泉","道後温泉（どうごおんせん）は、四国・愛媛県松山市（旧国伊予国）に湧出する温泉である。日本三古湯の一つといわれる。 その存在は古代から知られ、万葉集巻一にも見える。なおかつてはこの周辺が温泉郡（おんせんぐん）（湯郡）と呼ばれていたが、これはこの温泉にちなむ地名である。 夏目漱石の小説『坊つちやん』（1905年）にも描かれ、愛媛県の代表的な観光地となっている。2007年8月に地域団体商標（地域ブランド）として認定された（申請者は道後温泉旅館協同組合、登録商標第5071495号）。",33.8521,132.786
"ニセコ薬師温泉","ニセコ薬師温泉（ニセコやくしおんせん）は、北海道磯谷郡蘭越町、ニセコ温泉郷にあった温泉。浴槽そのものが源泉で、浴槽の下からお湯がそのまま湧いていた。日本三大秘湯のひとつとされる。",42.8332,140.643
"七沢温泉","七沢温泉（ななさわおんせん/ならさわおんせん）は、神奈川県厚木市七沢（旧相模国）にある温泉。",35.447,139.287
"三浦マホロバ温泉","三浦マホロバ温泉（みうらまほろばおんせん）は、神奈川県三浦市（旧相模国）にある温泉。 ホテルの名前はマホロバ・マインズ三浦。",35.1851,139.651
"三谷温泉","三谷温泉（みやおんせん）は、愛知県蒲郡市三谷町（旧国三河国）にある温泉である。",34.8071,137.256
"下呂温泉","下呂温泉（げろおんせん）は、岐阜県下呂市（旧飛騨国、岐阜県益田郡下呂町）にある温泉。室町時代には万里集九が有馬温泉や草津温泉とともに「三名泉」とし、江戸時代には林羅山もこれらの三温泉を「天下の三名泉」と記した（日本三名泉）（ただし、当時は下呂ではなく湯島と表記）。",35.8081,137.239
"下呂温泉","下呂温泉（げろおんせん）は、岐阜県下呂市（旧飛騨国、岐阜県益田郡下呂町）にある温泉。林羅山が有馬温泉・草津温泉とともに、日本三名泉に数えた（ただし、当時は下呂ではなく湯島と表記）ことから、「日本三名泉」と称される。",35.8081,137.239
"乳頭温泉郷","乳頭温泉郷（にゅうとうおんせんきょう）は、秋田県仙北市、十和田八幡平国立公園内乳頭山の山麓に点在する温泉の総称、温泉郷である。 標高600 - 800メートル付近に温泉郷が広がっている。",39.3819,140.465
"乳頭温泉郷","乳頭温泉郷（にゅうとうおんせんきょう）は、秋田県仙北市、十和田八幡平国立公園内乳頭山の山麓に点在する温泉の総称、温泉郷である。 標高600 - 800メートル付近に温泉郷が広がっている。",39.8052,140.465
"乳頭温泉郷","乳頭温泉郷（にゅうとうおんせんきょう）は、秋田県仙北市、十和田八幡平国立公園内乳頭山の山麓に点在する温泉の総称、温泉郷である。 標高600 - 800メートル付近に温泉郷が広がっている。",39.3819,140.78
"乳頭温泉郷","乳頭温泉郷（にゅうとうおんせんきょう）は、秋田県仙北市、十和田八幡平国立公園内乳頭山の山麓に点在する温泉の総称、温泉郷である。 標高600 - 800メートル付近に温泉郷が広がっている。",39.8052,140.78
"亀山温泉","亀山温泉（かめやまおんせん）は、千葉県君津市にある温泉である。",35.2286,140.084
"五色温泉","五色温泉（ごしきおんせん）は、北海道蘭越町、およびニセコ町にある温泉。ニセコ温泉郷のひとつ。ニセコ五色温泉とも呼ばれる。",42.8732,140.637
"五色温泉 (北海道)","五色温泉（ごしきおんせん）は、北海道蘭越町、およびニセコ町にある温泉。ニセコ温泉郷のひとつ。ニセコ五色温泉とも呼ばれる。",42.8732,140.637
"伊勢原温泉","伊勢原温泉（いせはらおんせん）は、神奈川県伊勢原市（旧国相模国）にある温泉。",35.4194,139.285
"伊豆長岡温泉","伊豆長岡温泉（いずながおかおんせん）は、静岡県伊豆の国市にある温泉。「名湯百選」「伊豆三古湯」である。",35.0353,138.929
"別子温泉〜天空の湯〜","別子温泉（べっしおんせん）は、愛媛県新居浜市の別子ラインの真ん中にあるマイントピア別子本館内にある温泉である。平成28年4月15日に、全面改装してオープンした。",33.9015,133.309
"別子温泉","別子温泉（べっしおんせん）は、愛媛県新居浜市の別子ラインの真ん中にあるマイントピア別子本館内にある温泉である。平成28年4月15日に、全面改装してオープンした。",33.9015,133.309
"台温泉","台温泉（だいおんせん）は、岩手県花巻市（旧国陸奥国、明治以降は陸中国）花巻温泉郷にある温泉。",39.4545,141.05
"国見温泉","国見温泉（くにみおんせん）は、岩手県岩手郡雫石町にある温泉。 旧・陸奥国（明治初期は陸中国）内の、秋田県（旧出羽国）との県境に近い、奥羽山脈のただ中にある秘湯。",39.7272,140.785
"多々羅温泉","多々羅温泉（たたらおんせん）は、愛媛県今治市上浦町井口（旧国伊予国）、瀬戸内海の大三島にある温泉。",34.2547,133.046
"大沢温泉","大沢温泉（おおさわおんせん）は岩手県花巻市（旧国陸奥国、明治以降は陸中国）の花巻温泉郷にある温泉。",39.4366,141.005
"大沢温泉","大沢温泉（おおさわおんせん）は岩手県花巻市（旧国陸奥国、明治以降は陸中国）の花巻温泉郷にある温泉。",39.4367,141.005
"大沢温泉","大沢温泉（おおさわおんせん）は岩手県花巻市（旧国陸奥国、明治以降は陸中国）の花巻温泉郷にある温泉。",39.4366,141.005
"大沢温泉","大沢温泉（おおさわおんせん）は岩手県花巻市（旧国陸奥国、明治以降は陸中国）の花巻温泉郷にある温泉。",39.4367,141.005
"大沢温泉 (岩手県)","大沢温泉（おおさわおんせん）は岩手県花巻市（旧国陸奥国、明治以降は陸中国）の花巻温泉郷にある温泉。",39.4366,141.005
"大沢温泉 (岩手県)","大沢温泉（おおさわおんせん）は岩手県花巻市（旧国陸奥国、明治以降は陸中国）の花巻温泉郷にある温泉。",39.4367,141.005
"大沢温泉 (岩手県)","大沢温泉（おおさわおんせん）は岩手県花巻市（旧国陸奥国、明治以降は陸中国）の花巻温泉郷にある温泉。",39.4366,141.005
"大沢温泉 (岩手県)","大沢温泉（おおさわおんせん）は岩手県花巻市（旧国陸奥国、明治以降は陸中国）の花巻温泉郷にある温泉。",39.4367,141.005
"大釜温泉","大釜温泉（おおがまおんせん）は、秋田県仙北市乳頭温泉郷にある温泉。廃校を移築利用した「大釜温泉旅館」がある。",39.8044,140.797
"天竜峡温泉","天竜峡温泉（てんりゅうきょうおんせん）は、長野県飯田市（旧国信濃国）にある温泉。",35.4375,137.819
"奥津温泉","奥津温泉（おくつおんせん）は、岡山県苫田郡鏡野町に湧出する温泉である。かつての美作国に当たる場所であり、湯郷温泉、湯原温泉と共に「美作三湯」と呼ばれる。",35.223,133.92
"奥道後温泉","奥道後温泉（おくどうごおんせん）は、愛媛県松山市（旧国伊予国）に湧出する温泉。",33.8658,132.825
"奥道後温泉","奥道後温泉（おくどうごおんせん）は、愛媛県松山市（旧国伊予国）に湧出する温泉。",33.8661,132.825
"奥道後温泉","奥道後温泉（おくどうごおんせん）は、愛媛県松山市（旧国伊予国）に湧出する温泉。",33.8658,132.826
"奥道後温泉","奥道後温泉（おくどうごおんせん）は、愛媛県松山市（旧国伊予国）に湧出する温泉。",33.8661,132.826
"奥鬼怒温泉郷","奥鬼怒温泉郷 （おくきぬおんせんきょう）は、栃木県日光市（旧国下野国）川俣にある温泉の総称（温泉郷）である。温泉郷のエリアは、一般に女夫渕温泉より先のエリアを指す。鬼怒川の源流部付近にあり、鬼怒沼、尾瀬への登山客の利用も多い。",36.8686,139.394
"媛彦温泉","媛彦温泉（ひめひこおんせん）は、愛媛県松山市（旧国伊予国）に湧出する温泉。",33.8274,132.8
"媛彦温泉","媛彦温泉（ひめひこおんせん）は、愛媛県松山市（旧国伊予国）に湧出する温泉。",33.8276,132.8
"媛彦温泉","媛彦温泉（ひめひこおんせん）は、愛媛県松山市（旧国伊予国）に湧出する温泉。",33.8274,132.801
"媛彦温泉","媛彦温泉（ひめひこおんせん）は、愛媛県松山市（旧国伊予国）に湧出する温泉。",33.8276,132.801
"定山渓温泉","定山渓温泉（じょうざんけい おんせん）は、北海道札幌市南区にある温泉地。",42.9644,141.161
"定山渓温泉","定山渓温泉（じょうざんけい おんせん）は、札幌市南区にある温泉地。",42.9644,141.161
"層雲峡温泉","層雲峡温泉（そううんきょうおんせん）は、北海道上川郡上川町の層雲峡地区にある温泉で、北海道有数の規模を誇る温泉街を形成している。",43.7286,142.946
"山の神温泉","山の神温泉（やまのかみおんせん）は、岩手県花巻市（旧国陸奥国、明治以降は陸中国）花巻温泉郷にある温泉。",39.4524,141.002
"山の神温泉 (岩手県)","山の神温泉（やまのかみおんせん）は、岩手県花巻市（旧国陸奥国、明治以降は陸中国）花巻温泉郷にある温泉。",39.4524,141.002
"山田温泉","山田温泉（やまだおんせん）は、北海道河東郡鹿追町北瓜幕にある温泉である。然別湖から北へ約2km進んだ原生林の中に立地する。",43.3073,143.126
"山田温泉 (北海道)","山田温泉（やまだおんせん）は、北海道河東郡鹿追町北瓜幕にある温泉である。然別湖から北へ約2km進んだ原生林の中に立地する。",43.3073,143.126
"岩尾別温泉","岩尾別温泉（いわおべつおんせん）は、北海道斜里郡斜里町岩尾別温泉にある温泉。知床国立公園内に位置する。",44.11,145.089
"川内温泉","川内温泉（かわうちおんせん）は、愛媛県東温市（旧国伊予国）に湧出する温泉。",33.8031,132.915
"川湯温泉","川湯温泉（かわゆおんせん）は、北海道川上郡弟子屈町にある温泉である。川湯の名は、アイヌ語の「セセキ（熱い）ペツ（川）」を意訳したものである。温泉街のなかを高温の温泉川が流れている。",43.6378,144.437
"川湯温泉 (北海道)","川湯温泉（かわゆおんせん）は、北海道川上郡弟子屈町にある温泉である。川湯の名は、アイヌ語の「セセキ（熱い）ペツ（川）」を意訳したものである。温泉街のなかを高温の温泉川が流れている。",43.6378,144.437
"川湯温泉","川湯温泉（かわゆおんせん）は、和歌山県田辺市本宮町（旧国紀伊国牟婁郡）にある温泉。",33.8126,135.775
"川湯温泉 (和歌山県)","川湯温泉（かわゆおんせん）は、和歌山県田辺市本宮町（旧国紀伊国牟婁郡）にある温泉。",33.8126,135.775
"広沢寺温泉","広沢寺温泉（こうたくじおんせん、廣澤寺温泉とも表記）は、神奈川県厚木市七沢にある温泉。七沢温泉郷に含まれる。また、旅館は玉翠楼（ぎょくすいろう）が1軒のみ存在する。",35.4531,139.284
"志戸平温泉","志戸平温泉（しどだいらおんせん）は、岩手県花巻市（旧国陸奥国、明治以降は陸中国）、花巻温泉郷にある温泉。",39.4175,141.01
"指宿温泉","指宿温泉（いぶすきおんせん）は、鹿児島県指宿市東部（旧国薩摩国）にある摺ヶ浜温泉（砂蒸しで有名）、弥次ヶ湯温泉、二月田温泉などの温泉群の総称。鹿児島県内有数の観光地であり、2003年（平成15年）において年間285万人の観光客が訪れ、91万人の宿泊客を集めている。農業や養殖などへの温泉利用も盛んであり、温泉の9割が産業利用されていた時期もあった。また、1960年頃から始まったハネムーンブームの中、「東洋のハワイ」と呼ばれた指宿温泉は、そのメッカとして賑わった。",31.2232,130.655
"支笏湖温泉","支笏湖温泉（しこつこおんせん）は、北海道千歳市にある温泉、および支笏湖東岸部の地名である。",42.7739,141.403
"新鉛温泉","新鉛温泉（しんなまりおんせん）は、岩手県花巻市（旧国陸奥国、明治以降は陸中国）花巻温泉郷にある温泉。",39.4676,140.988
"日中温泉","日中温泉（にっちゅうおんせん）は、福島県喜多方市熱塩加納町（旧国陸奥国、明治以降は岩代国）にある温泉。",37.7516,139.906
"日田温泉","日田温泉（ひたおんせん）は、大分県日田市（旧国豊後国）にある温泉。",33.3122,130.932
"本谷温泉","本谷温泉（ほんだにおんせん）は、愛媛県西条市（旧国伊予国）にある温泉。",33.9295,133.021
"松倉温泉","松倉温泉（まつくらおんせん）は、岩手県花巻市（旧国陸奥国、明治以降は陸中国）花巻温泉郷にある温泉。",39.4098,141.012
"松川温泉","松川温泉（まつかわおんせん）は、岩手県八幡平市（旧国陸奥国、明治以降は陸中国）にある温泉。",39.8717,140.91
"洞爺湖温泉","洞爺湖温泉（とうやこおんせん、英: Lake Toya Hot Spring）は、北海道虻田郡洞爺湖町にある温泉、または洞爺湖町と有珠郡壮瞥町の地名。",42.5642,140.818
"渡り温泉","渡り温泉（わたりおんせん）は、岩手県花巻市（旧国陸奥国、明治以降は陸中国）花巻温泉郷にある温泉。",39.4253,141.014
"渡瀬温泉","渡瀬温泉（わたぜおんせん）は、和歌山県田辺市本宮町（旧国紀伊国牟婁郡）にある温泉。",33.8185,135.766
"温根湯温泉","温根湯温泉（おんねゆおんせん）は、北海道北見市留辺蘂町温根湯温泉にある温泉。国道39号沿いにあり、無加川の清流をはさんで旅館やホテルが立ち並ぶ。「温根湯」の名称は、アイヌ語の「オンネ」（大きな）・「ユ」（お湯）に由来する。",43.7597,143.509
"湯の峰温泉","湯の峰温泉（ゆのみねおんせん）は、和歌山県田辺市本宮町（旧国紀伊国牟婁郡）湯の峰にある温泉。4世紀頃に熊野の国造、によって発見され、後に歴代上皇の熊野御幸によってその名を全国に知らしめた日本最古の湯で、古くから熊野詣の旅人達にとっての湯垢離と休息の場として知られていた。2004年には紀伊山地の霊場と参詣道の構成資産の一部として、温泉としては初の世界遺産にも登録されている。餓鬼阿弥の姿となり死の淵を彷徨う小栗判官が、照手姫の助けで湯に浸かって体を癒した「小栗判官と照手姫伝説」が残る。",33.8289,135.757
"湯の川温泉","湯の川温泉（ゆのかわおんせん）は、北海道函館市にある温泉。「名湯百選」選定。",41.7797,140.786
"湯の川温泉 (北海道)","湯の川温泉（ゆのかわおんせん）は、北海道函館市にある温泉。「名湯百選」選定。",41.7797,140.786
"湯ノ浦温泉","湯ノ浦温泉（ゆのうらおんせん）は、愛媛県今治市（旧国伊予国）の南東、渚百選に選ばれた白砂清松の桜井海岸を望む高台に位置する温泉郷。湧出量は1日あたり1200トン。ラドンやフッ素などを含む良質な温泉として知られている。NPO法人健康と温泉フォーラムによる、温泉療法医がすすめる名湯百選に選ばれている。",33.9952,133.054
"湯之谷温泉","湯之谷温泉（ゆのたにおんせん）は、愛媛県西条市洲之内（旧国伊予国）にある温泉である。",33.8929,133.164
"湯之谷温泉 (愛媛県)","湯之谷温泉（ゆのたにおんせん）は、愛媛県西条市洲之内（旧国伊予国）にある温泉である。",33.8929,133.164
"湯之谷温泉","湯之谷温泉（ゆのたにおんせん）は、鹿児島県霧島市牧園町（旧国大隅国）の霧島温泉郷にある温泉。同名の温泉は愛媛県西条市にもある（湯之谷温泉 (愛媛県)）。また新潟県魚沼市には「湯之谷温泉郷」がある。同じ鹿児島県内の「湯之元温泉」は日置市の別の温泉である。",31.8876,130.837
"湯之谷温泉 (鹿児島県)","湯之谷温泉（ゆのたにおんせん）は、鹿児島県霧島市牧園町（旧国大隅国）の霧島温泉郷にある温泉。同名の温泉は愛媛県西条市にもある（湯之谷温泉 (愛媛県)）。また新潟県魚沼市には「湯之谷温泉郷」がある。同じ鹿児島県内の「湯之元温泉」は日置市の別の温泉である。",31.8876,130.837
"湯之谷温泉郷","湯之谷温泉郷（ゆのたにおんせんきょう）は、新潟県魚沼市（旧湯之谷村）にある温泉の総称（温泉郷）。小出地区から奥只見に向かう谷沿いに、薬師、葎沢、芋川、折立、大湯、栃尾又、駒の湯の各温泉が並んでいる。越後駒ヶ岳（標高2003m）の北隣にあり、晴れた日には駒ヶ岳の勇姿が間近に見える。 湯之谷温泉と名前がつく温泉は愛媛県西条市、鹿児島県霧島市・霧島温泉郷にもある。",37.2349,138.991
"湯原温泉","湯原温泉（ゆばらおんせん）は、岡山県県北の真庭市湯原温泉（旧：湯原町）にある温泉。温泉指南役や環境問題、まちづくりに地域として力を注いでいる。野口冬人による諸国露天風呂番付で西の横綱にランクされた「砂湯」で知られる。また南にある・・・との5つを総称して「湯原温泉郷」とも称される。湯郷温泉、奥津温泉とともに美作三湯と呼ばれている。",35.2011,133.732
"湯田温泉","湯田温泉（ゆだおんせん）は、山口県山口市（旧国周防国）にある温泉。山口県を代表する温泉（「防長四湯」）の一つである。",34.1644,131.457
"湯郷温泉","湯郷温泉（ゆのごうおんせん）は、岡山県美作市湯郷、（旧国美作国）にある温泉。",34.9931,134.135
"濁河温泉","濁河温泉（にごりごおんせん）は、岐阜県下呂市（旧国飛騨国）にある温泉。 下呂市中心部に位置する下呂温泉からは遠く離れており、旧益田郡小坂町の山あいにある秘湯。",35.9236,137.449
"然別湖畔温泉","然別湖畔温泉（しかりべつこはんおんせん）は、北海道河東郡鹿追町にある温泉。然別湖の西岸にある。",43.2731,143.105
"片山津温泉","片山津温泉（かたやまづおんせん）は、石川県加賀市（旧国加賀国）にある温泉。 温泉街は柴山潟の一部を埋め立てられて作られている。 加賀温泉郷のひとつで、北陸を代表する歓楽温泉として知られた。 また、片山津温泉の一帯は、加賀市の町名にもなっている。",36.3453,136.368
"由布院温泉","由布院温泉（ゆふいんおんせん）は、大分県由布市（旧国豊後国速見郡）にある温泉。由布岳（標高1,584m）の麓に広がる温泉地である。 温泉湧出量、源泉数ともに全国2位の豊富な湯量を誇る。1959年5月5日に湯平温泉とともに「湯布院温泉」として国民保養温泉地に指定され、2019年10月4日には、由布市内の塚原温泉・庄内温泉・挾間温泉を含めた「湯布院温泉郷」として拡充指定された。",33.2625,131.355
"登別温泉","登別温泉（のぼりべつおんせん、英: Noboribetsu Onsen）は、北海道登別市にある温泉。江戸時代から温泉の存在が知られており、明治時代に温泉宿が設けられてからは保養地・観光地となった。「にっぽんの温泉100選・総合ランキング」では毎年上位にランクインしている日本有数の温泉地となっている。地名の語源はアイヌ語の「ヌプル・ペツ」（水色の濃い川）に由来している。",42.4951,141.144
"真湯温泉","真湯温泉（しんゆおんせん）は、岩手県一関市（旧国陸奥国、明治以降は陸中国）にある温泉。",39.0045,140.853
"矢指ヶ浦温泉","矢指ヶ浦温泉（やさしがうらおんせん）は、千葉県旭市（旧国下総国）にある温泉。 温泉認定を受けた温泉宿「矢指ヶ浦温泉館」がある。海岸沿いは県立九十九里自然公園に指定されている。",35.6946,140.664
"箕面温泉","箕面温泉（みのおおんせん）は、大阪府箕面市温泉町にある温泉。",34.8388,135.469
"粟津温泉","粟津温泉（あわづおんせん）は、石川県小松市（旧国加賀国江沼郡）にある温泉。山代、山中、片山津とともに加賀温泉郷の一つに数えられる。",36.3306,136.446
"肘折温泉","肘折温泉（ひじおりおんせん）は、山形県最上郡大蔵村にある温泉。",38.6087,140.167
"船小屋温泉","船小屋温泉（ふなごやおんせん）は、有明海へと注ぐ河川の1本である矢部川沿いに湧出する、福岡県南部の冷鉱泉である。矢部川の両岸に湧出しているものの、筑後市は船小屋温泉と呼ばれるのに対し、みやま市側は新船小屋温泉と名称が異なる。なお、船小屋温泉と新船小屋温泉を隔てる矢部川には、も架けられている。本項では新船小屋温泉も含めて記述する。",33.1832,130.506
"花巻温泉","花巻温泉（はなまきおんせん）は、岩手県花巻市にある温泉。周辺の温泉と併せて花巻温泉郷と称される。",39.4656,140.983
"花巻温泉","花巻温泉（はなまきおんせん）は、岩手県花巻市にある温泉。周辺の温泉と併せて花巻温泉郷と称される。",39.4656,140.983
"花巻温泉","花巻温泉（はなまきおんせん）は、岩手県花巻市にある温泉。周辺の温泉と併せて花巻温泉郷と称される。",39.4656,140.983
"花巻温泉","花巻温泉（はなまきおんせん）は、岩手県花巻市にある温泉。周辺の温泉と併せて花巻温泉郷と称される。",39.4656,140.983
"草津温泉","草津温泉（くさつおんせん）は、日本の群馬県吾妻郡草津町草津界隈（江戸時代における上野国吾妻郡草津村界隈、幕藩体制下の上州御料草津村界隈〈初期は沼田藩知行〉）に所在する温泉である。草津白根山東麓に位置する。 毎分3万2300?以上の自然湧出量は日本一。室町時代には万里集九が有馬温泉や下呂温泉とともに「三名泉」とし、江戸時代には林羅山もこれらの三温泉を「天下の三名泉」と記した（日本三名泉） (cf. ,)。江戸時代後期以降何度も作られた温泉番付の格付では、当時の最高位である大関（草津温泉は東大関）が定位置であった (cf. )。",36.6228,138.593
"草津温泉","草津温泉（くさつおんせん）は、日本の群馬県吾妻郡草津町草津界隈（江戸時代における上野国吾妻郡草津村界隈、幕藩体制下の上州御料草津村界隈〈初期は沼田藩知行〉）に所在する温泉である。草津白根山東麓に位置する。 毎分3万2300?以上の自然湧出量は日本一。日本を代表する名泉（名湯）の一つであり、万里集九と林羅山は日本三名泉（他は下呂温泉と有馬温泉）の一つに数えた (cf. ,)。江戸時代後期以降何度も作られた温泉番付の格付では、当時の最高位である大関（草津温泉は東大関）が定位置であった (cf. )。",36.6228,138.593
"草津温泉","草津温泉（くさつおんせん）は、日本の群馬県吾妻郡草津町草津界隈（江戸時代における上野国吾妻郡草津村界隈、幕藩体制下の上州御料草津村界隈〈初期は沼田藩知行〉）に所在する温泉である。草津白根山東麓に位置する。 毎分3万2300?以上の自然湧出量は日本一。室町時代には万里集九が有馬温泉や下呂温泉とともに「三名泉」とし、江戸時代には林羅山もこれらの三温泉を「天下の三名泉」と記した（日本三名泉） (cf. ,)。江戸時代後期以降何度も作られた温泉番付の格付では、当時の最高位である大関（草津温泉は東大関）が定位置であった (cf. )。",36.6383,138.593
"草津温泉","草津温泉（くさつおんせん）は、日本の群馬県吾妻郡草津町草津界隈（江戸時代における上野国吾妻郡草津村界隈、幕藩体制下の上州御料草津村界隈〈初期は沼田藩知行〉）に所在する温泉である。草津白根山東麓に位置する。 毎分3万2300?以上の自然湧出量は日本一。日本を代表する名泉（名湯）の一つであり、万里集九と林羅山は日本三名泉（他は下呂温泉と有馬温泉）の一つに数えた (cf. ,)。江戸時代後期以降何度も作られた温泉番付の格付では、当時の最高位である大関（草津温泉は東大関）が定位置であった (cf. )。",36.6383,138.593
"草津温泉","草津温泉（くさつおんせん）は、日本の群馬県吾妻郡草津町草津界隈（江戸時代における上野国吾妻郡草津村界隈、幕藩体制下の上州御料草津村界隈〈初期は沼田藩知行〉）に所在する温泉である。草津白根山東麓に位置する。 毎分3万2300?以上の自然湧出量は日本一。室町時代には万里集九が有馬温泉や下呂温泉とともに「三名泉」とし、江戸時代には林羅山もこれらの三温泉を「天下の三名泉」と記した（日本三名泉） (cf. ,)。江戸時代後期以降何度も作られた温泉番付の格付では、当時の最高位である大関（草津温泉は東大関）が定位置であった (cf. )。",36.6228,138.597
"草津温泉","草津温泉（くさつおんせん）は、日本の群馬県吾妻郡草津町草津界隈（江戸時代における上野国吾妻郡草津村界隈、幕藩体制下の上州御料草津村界隈〈初期は沼田藩知行〉）に所在する温泉である。草津白根山東麓に位置する。 毎分3万2300?以上の自然湧出量は日本一。日本を代表する名泉（名湯）の一つであり、万里集九と林羅山は日本三名泉（他は下呂温泉と有馬温泉）の一つに数えた (cf. ,)。江戸時代後期以降何度も作られた温泉番付の格付では、当時の最高位である大関（草津温泉は東大関）が定位置であった (cf. )。",36.6228,138.597
"草津温泉","草津温泉（くさつおんせん）は、日本の群馬県吾妻郡草津町草津界隈（江戸時代における上野国吾妻郡草津村界隈、幕藩体制下の上州御料草津村界隈〈初期は沼田藩知行〉）に所在する温泉である。草津白根山東麓に位置する。 毎分3万2300?以上の自然湧出量は日本一。室町時代には万里集九が有馬温泉や下呂温泉とともに「三名泉」とし、江戸時代には林羅山もこれらの三温泉を「天下の三名泉」と記した（日本三名泉） (cf. ,)。江戸時代後期以降何度も作られた温泉番付の格付では、当時の最高位である大関（草津温泉は東大関）が定位置であった (cf. )。",36.6383,138.597
"草津温泉","草津温泉（くさつおんせん）は、日本の群馬県吾妻郡草津町草津界隈（江戸時代における上野国吾妻郡草津村界隈、幕藩体制下の上州御料草津村界隈〈初期は沼田藩知行〉）に所在する温泉である。草津白根山東麓に位置する。 毎分3万2300?以上の自然湧出量は日本一。日本を代表する名泉（名湯）の一つであり、万里集九と林羅山は日本三名泉（他は下呂温泉と有馬温泉）の一つに数えた (cf. ,)。江戸時代後期以降何度も作られた温泉番付の格付では、当時の最高位である大関（草津温泉は東大関）が定位置であった (cf. )。",36.6383,138.597
"蔵王温泉","蔵王温泉（ざおうおんせん）は、西暦110年開湯と言われ1900年の歴史を持つ、山形県（旧出羽国、明治以降は羽前国）の山形市南東部、蔵王連峰の西麓にある温泉。標高880mに位置し、古くは最上高湯、高湯（たかゆ）と呼ばれた。同県の白布温泉、福島県の高湯温泉と共に奥羽三高湯の一つに数えられる。 国内有数の規模を誇る蔵王温泉スキー場を併設しており、冬季はスキー客などでも賑わっている。",38.1672,140.396
"裂石温泉","裂石温泉（さけいしおんせん）は、山梨県甲州市（旧国甲斐国）にある温泉。",35.7406,138.804
"見奈良温泉","見奈良温泉（みならおんせん）は愛媛県東温市（旧国伊予国）に湧出する温泉。",33.7909,132.879
"谷地温泉","谷地温泉（やちおんせん）は、青森県十和田市（旧国陸奥国）にある温泉で、「日本三大秘湯」の一つとされる。",40.633,140.925
"豊富温泉","豊富温泉（とよとみおんせん）は、北海道天塩郡豊富町にある温泉。日本の温泉郷としては最北に位置する。 1926年（大正15年）、石油試掘中に天然ガスとともに湧出した化石海水によるモール泉である。",45.0736,141.84
"赤湯温泉","赤湯温泉（あかゆおんせん）は、山形県の南東端部に存在する温泉の1つである。",38.0498,140.168
"赤湯温泉 (山形県)","赤湯温泉（あかゆおんせん）は、山形県の南東端部に存在する温泉の1つである。",38.0498,140.168
"道後さや温泉","道後さや温泉（どうごさやおんせん）は愛媛県松山市（旧国伊予国）に湧出する温泉。",33.8298,132.725
"鉛温泉","鉛温泉（なまりおんせん）は、岩手県花巻市（旧国陸奥国、明治以降は陸中国）花巻温泉郷にある温泉。",39.4656,140.99
"銀山温泉","銀山温泉（ぎんざんおんせん）は、山形県尾花沢市（旧国出羽国、明治以降は羽前国）にある温泉である。 NHK連続テレビ小説『おしん』の舞台となったことで一躍脚光を浴び、全国的にその名を知られることになった。",38.5697,140.531
"長湯温泉","長湯温泉（ながゆおんせん）は、大分県竹田市直入町（旧国豊後国）にある温泉である。炭酸濃度、湧出量、温度から「世界屈指の炭酸泉」、「日本有数の炭酸泉」とされ、その効能（飲泉含む）で知られている。",33.0668,131.374
"長門湯本温泉","長門湯本温泉（ながと ゆもと おんせん）は、山口県長門市（旧国長門国）にある温泉。山口県を代表する温泉（「防長四湯」）の一つである。 正式名称は「長門」を冠しない「湯本温泉」であり、全国温泉大事典、帝国書院地図帳などには「湯本（温泉）」と記載されているほか、旅館組合の正式名称も「湯本温泉旅館協同組合」であり、近郊において「長門湯本温泉」と呼ぶ機会は少ない。ただし、先述の湯本温泉旅館協同組合のサイトや長門市観光コンベンション協会のサイトでは「長門湯本温泉」として紹介されている。鉄道院編の『温泉案内』では「深川温泉」として紹介され、「長州第一の名湯だと云ふ」と記されている。",34.3306,131.171
"阿寒湖温泉","阿寒湖温泉（あかんこおんせん）は、北海道釧路市阿寒町阿寒湖温泉の、阿寒湖畔にある温泉である。温泉街が形成されている。",43.4333,144.094
"須川温泉","須川温泉（すかわおんせん）は、栗駒山北側の秋田県と岩手県の県境付近にある温泉地。 温泉施設としては秋田県雄勝郡東成瀬村椿川字仁郷山国有林（栗駒国定公園内）に「須川温泉栗駒山荘」がある。また、源泉名としては岩手県一関市厳美町祭畤山国有林46林班トを湧出地とする源泉をいう。同地に源泉をもつ温泉施設として岩手県側に位置する須川高原温泉（岩手県一関市厳美町祭畤山国有林46林班ト）がある。",38.9793,140.77
"須川温泉","須川温泉（すかわおんせん）は、栗駒山北側の秋田県と岩手県の県境付近にある温泉地。 温泉施設としては秋田県雄勝郡東成瀬村椿川字仁郷山国有林（栗駒国定公園内）に「須川温泉栗駒山荘」がある。また、源泉名としては岩手県一関市厳美町祭畤山国有林を湧出地とする源泉をいう。同地に源泉をもつ温泉として岩手県側に位置する須川高原温泉（一関市厳美町祭畤山国有林内）がある。",38.9793,140.77
"飯坂温泉","飯坂温泉（いいざかおんせん）は、福島県福島市飯坂地域（旧国：陸奥国、明治以降は岩代国）にある温泉。歴史・規模ともに日本を代表する名泉の一つである。",37.8319,140.454
"飯山温泉","飯山温泉（いいやまおんせん）は、神奈川県厚木市飯山（旧相模国）にある温泉。",35.479,139.304
"高倉山温泉","高倉山温泉(たかくらやまおんせん)は、岩手県花巻市(旧国陸奥国、明治以降は陸中国)花巻温泉郷にかつてあった温泉。",39.4571,141
"鶴の湯温泉","鶴の湯温泉（つるのゆおんせん）は、北海道勇払郡安平町早来北町にある温泉。",42.7565,141.797
"鶴の湯温泉 (北海道)","鶴の湯温泉（つるのゆおんせん）は、北海道勇払郡安平町早来北町にある温泉。",42.7565,141.797
"たらポッキ温泉","たらポッキ温泉（たらポッキおんせん）とは、青森県青森市鶴ケ坂にある日帰り入浴施設のある温泉である。 1980年代に廃れた旧に代わる形で、1984年に開湯した新興温泉である。",40.794,140.635
"ぬかびら温泉","ぬかびら温泉（ - おんせん）は、北海道河東郡上士幌町にある温泉。 地名の由来は、アイヌ語の「ノカ・ピラ」（形のある崖）より。音更川沿岸の崖に、人の姿に似た岩があったことからの命名。その岩は現在糠平ダムの湖底にある。",43.3654,143.189
"ニセコ新見温泉","ニセコ新見温泉（ニセコにいみおんせん）または新見温泉は、北海道磯谷郡蘭越町字新見にあった温泉。",42.8819,140.548
"ニセコ昆布温泉","ニセコ昆布温泉（ニセコこんぶおんせん）は、北海道虻田郡ニセコ町、北海道磯谷郡蘭越町にある温泉で、ニセコ温泉郷の一つ。",42.8472,140.624
"中岳温泉","中岳温泉（なかだけおんせん）は、北海道上川郡東川町にある、大雪山旭岳山系、中岳の中腹に湧く野湯。",43.6817,142.861
"中房温泉","中房温泉（なかぶさおんせん）は、長野県安曇野市にある温泉。江戸時代から続く老舗の温泉宿である。日本百名湯。は国の天然記念物に指定、は国の登録有形文化財に登録されている。飛騨山脈（北アルプス）表銀座、燕岳への登山口としても知られる。中部山岳国立公園内に位置する。",36.3942,137.747
"二股ラヂウム温泉","二股ラヂウム温泉（ふたまたらぢうむおんせん）は、北海道山越郡長万部町字大峯にある温泉。 二股温泉、二股ラジウム温泉、二股らぢうむ温泉など、複数の名称で呼ばれる。",42.5768,140.239
"北湯沢温泉","北湯沢温泉（きたゆざわおんせん）は、北海道伊達市大滝区北湯沢温泉町にある温泉である。",42.6214,141.023
"十勝岳温泉","十勝岳温泉（とかちだけおんせん）は、北海道空知郡上富良野町十勝岳温泉にある温泉。 大雪山系十勝岳山腹の標高1,280mにある凌雲閣は、北海道で最も高所にある温泉である",43.4136,142.643
"半原温泉","半原温泉（はんばらおんせん）は、神奈川県愛甲郡愛川町（旧国相模国）にある温泉。",35.5269,139.282
"古里温泉","古里温泉（ふるさとおんせん）は、鹿児島県鹿児島市古里町（旧国大隅国）にある温泉。",31.5516,130.657
"天人峡温泉","天人峡温泉（てんにんきょうおんせん）は、北海道上川郡東川町の忠別川沿いにある温泉。大雪山国立公園内にあり柱状節理の深い渓谷の底に位置する。旭川市の奥座敷で、大雪山の登山拠点のひとつにもなっている。",43.6215,142.781
"安比温泉","安比温泉（あっぴおんせん）は、岩手県八幡平市（旧国陸奥国）にある温泉。 本来の安比温泉は八幡平への安比高原側からの登山道から入ったところにある野湯であるが、近年は安比高原に開発された温泉街も指す場合が増えている（安比山麓温泉と言われていた）。本項では両方とも記載する。",39.9744,140.898
"宝泉寺温泉","宝泉寺温泉（ほうせんじおんせん）は、大分県玖珠郡九重町（旧国豊後国）にある温泉。九重九湯の主力である。",33.1942,131.167
"尾之間温泉","尾之間温泉（おのあいだおんせん）は、鹿児島県熊毛郡屋久島町（旧国大隅国）にある温泉。",30.2404,130.549
"川中子温泉","川中子温泉（かわなかごおんせん）は、茨城県常陸太田市（旧国常陸国）にある温泉。国道293号と日立電鉄線の間に、1軒宿の「川中子温泉 極楽荘」が存在する。周辺には果樹園が多く存在する。",36.5192,140.569
"川内高城温泉","川内高城温泉（せんだいたきおんせん）は、鹿児島県薩摩川内市湯田町（旧・薩摩国高城郡高城郷湯田村）にある温泉。二級河川湯田川上流にある。 近年までは川内温泉、あるいは高城温泉と呼ばれていたが1967年に統一。また湯川内（ゆごうち）温泉と呼ばれていた時期もある。鹿児島県最古の温泉であるとされている。",31.9163,130.256
"市比野温泉","市比野温泉（いちひのおんせん）は、鹿児島県薩摩川内市樋脇町市比野（旧薩摩郡樋脇郷市比野村）にある温泉。江戸時代から大衆のための湯治場として栄えた歴史を持つ。",31.7894,130.405
"平内海中温泉","平内海中温泉(ひらうちかいちゅうおんせん)は、鹿児島県熊毛郡屋久島町（旧国大隅国）にある温泉。",30.2308,130.483
"形原温泉","形原温泉（かたはらおんせん）は、西浦温泉、三谷温泉と共に、愛知県蒲郡市を代表する温泉地である。",34.8162,137.174
"愛山渓温泉","愛山渓温泉（あいざんけいおんせん）は、北海道上川郡上川町字愛山渓にある温泉。大雪山への登山基地の一つとなっている。",43.7194,142.815
"日当山温泉","日当山温泉（ひなたやまおんせん）は、日本の温泉群。",31.7628,130.754
"昆布川温泉","昆布川温泉（こんぶがわおんせん）は、北海道磯谷郡蘭越町にある温泉。",42.7979,140.597
"星乃岡温泉","星乃岡温泉（ほしのおかおんせん）とは、（株）大東興産が経営している、愛媛県松山市星岡町にある3棟からなる温泉施設である。 やや硫黄臭がするが、豊富な源泉を加水なしの掛け流しで、「美人の湯」と言うキャッチフレーズでつるつるになる。 入浴施設の他に食事や宿泊施設がある。 
* 原泉 
* 星乃岡温泉原泉2,3号 
* 効能 
* 効果、疲労回復、神経痛、筋肉痛、関節痛、五十肩、肩凝り、腰痛、冷え症",33.8178,132.786
"星乃岡温泉","星乃岡温泉（ほしのおかおんせん）とは、（株）大東興産が経営している、愛媛県松山市星岡町にある3棟からなる温泉施設である。 やや硫黄臭がするが、豊富な源泉を加水なしの掛け流しで、「美人の湯」と言うキャッチフレーズでつるつるになる。 入浴施設の他に食事や宿泊施設がある。 
* 原泉 
* 星乃岡温泉原泉2,3号 
* 効能 
* 効果、疲労回復、神経痛、筋肉痛、関節痛、五十肩、肩凝り、腰痛、冷え症",33.8198,132.786
"星乃岡温泉","星乃岡温泉（ほしのおかおんせん）とは、（株）大東興産が経営している、愛媛県松山市星岡町にある3棟からなる温泉施設である。 やや硫黄臭がするが、豊富な源泉を加水なしの掛け流しで、「美人の湯」と言うキャッチフレーズでつるつるになる。 入浴施設の他に食事や宿泊施設がある。 
* 原泉 
* 星乃岡温泉原泉2,3号 
* 効能 
* 効果、疲労回復、神経痛、筋肉痛、関節痛、五十肩、肩凝り、腰痛、冷え症",33.8178,132.787
"星乃岡温泉","星乃岡温泉（ほしのおかおんせん）とは、（株）大東興産が経営している、愛媛県松山市星岡町にある3棟からなる温泉施設である。 やや硫黄臭がするが、豊富な源泉を加水なしの掛け流しで、「美人の湯」と言うキャッチフレーズでつるつるになる。 入浴施設の他に食事や宿泊施設がある。 
* 原泉 
* 星乃岡温泉原泉2,3号 
* 効能 
* 効果、疲労回復、神経痛、筋肉痛、関節痛、五十肩、肩凝り、腰痛、冷え症",33.8198,132.787
"朝里川温泉","朝里川温泉（あさりがわおんせん）は、北海道小樽市にある温泉。",43.1456,141.04
"柿下温泉","柿下温泉（かきしたおんせん）は、福岡県田川郡香春町（旧国豊前国）にある温泉。",33.6541,130.861
"権現温泉","権現温泉（ごんげおんせん）は、愛媛県松山市（旧国伊予国）にある温泉。",33.8967,132.767
"権現温泉","権現温泉（ごんげおんせん）は、愛媛県松山市（旧国伊予国）にある温泉。",33.8982,132.767
"権現温泉","権現温泉（ごんげおんせん）は、愛媛県松山市（旧国伊予国）にある温泉。",33.8967,132.768
"権現温泉","権現温泉（ごんげおんせん）は、愛媛県松山市（旧国伊予国）にある温泉。",33.8982,132.768
"水無海浜温泉","水無海浜温泉（みずなしかいひんおんせん）は、北海道函館市椴法華地区にある温泉である。活火山である恵山東斜面裾野の海岸線に位置する。",41.8111,141.184
"湯之元温泉","湯之元温泉（ゆのもとおんせん）は、鹿児島県日置市東市来町湯田（旧国薩摩国）にある温泉。中薩地方有数の規模を誇る。なお、東市来町は薩摩焼で有名。",31.6728,130.335
"湯之尾温泉","湯之尾温泉（ゆのおおんせん）は、鹿児島県伊佐市菱刈川北（旧国薩摩国）にある温泉。菱刈は現在も稼動する金鉱山で知られるが、新しく引かれた源泉も金採掘中に噴出した副産物であり、それを有効活用したもの。",31.9876,130.66
"濁川温泉","濁川温泉（にごりかわおんせん）は、北海道茅部郡森町にある温泉。",42.1252,140.455
"燕温泉","燕温泉（つばめおんせん）は、新潟県妙高市燕温泉にある温泉。妙高戸隠連山国立公園区域内にある。",36.8983,138.13
"牛滝温泉","牛滝温泉（うしたきおんせん）は、大阪府岸和田市（旧国和泉国大沢村）にある温泉。",34.376,135.45
"犬鳴山温泉","犬鳴山温泉（いぬなきやまおんせん）は、大阪府泉佐野市大木犬鳴にある温泉。かつて犬鳴温泉と呼ばれていた時期もある。",34.3385,135.376
"白山一里野温泉","白山一里野温泉（はくさんいちりのおんせん）は、石川県白山市（旧国加賀国）にある温泉。中宮温泉とあわせて白山温泉郷とも呼べるが、距離的な面からして一般的とはいえない。周辺は石川県の白山一里野県立自然公園に指定されている。",36.267,136.719
"知内温泉","知内温泉（しりうちおんせん）は、北海道上磯郡知内町字湯ノ里にある温泉。北海道最古の歴史を持つ温泉地である。",41.5956,140.295
"籠坊温泉","籠坊温泉（篭坊温泉、かごぼうおんせん、かごのぼうおんせん）は、兵庫県丹波篠山市（丹波国）にある温泉。",35.0347,135.325
"綱島温泉","綱島温泉（つなしまおんせん）は、神奈川県横浜市港北区綱島・樽町（旧：琵琶畑下）・大曽根にある温泉。戦前・戦後は、“東京の奥座敷”と呼ばれ大きな温泉街であったが、現在は数軒の日帰り入浴施設や温泉銭湯が残り、その名残を止めている程度である。",35.5365,139.636
"網走湖畔温泉","網走湖畔温泉（あばしりこはんおんせん）は、北海道網走市にある温泉。",43.9683,144.211
"繋温泉","繋温泉（つなぎおんせん）は、岩手県盛岡市（旧国陸奥国、明治以降は陸中国）にある温泉である。 盛岡市街の西奥、雫石町との境界線近く、御所湖というダム湖の畔に位置する。 近年では、「つなぎ温泉」と平仮名での表記を用いることも多い。",39.6761,141.023
"羅臼温泉","羅臼温泉（らうすおんせん）は、北海道目梨郡羅臼町にある温泉。",44.0317,145.155
"美川温泉","美川温泉（みかわおんせん）は、石川県白山市（旧国加賀国）にある温泉。",36.4864,136.498
"芦別温泉","芦別温泉（あしべつおんせん）は、北海道芦別市旭町油谷にある温泉。 通称「油谷温泉」 は、温泉所在地一帯が、元「油谷鉱業（株)油谷芦別炭鉱」跡地に属することからこの通称が存在する。",43.5455,142.241
"然別峡かんの温泉","然別峡かんの温泉（かんのおんせん）は、北海道河東郡鹿追町にある温泉。大雪山国立公園内にあり、秘湯として知られる。 営業再開後は菅野温泉から然別峡かんの温泉と名称を変更した。「菅野温泉旅館」1軒のみの営業であったが、旧経営者の都合により2008年12月に廃業した。2012年に別会社が買収し、2014年には改装工事が終了し再開業、8月19日から入湯が行われている。再開当初は日帰り入浴だけであったが、その後「こもれび荘」で宿泊できるようになった。",43.3258,143.049
"菅野温泉","然別峡かんの温泉（かんのおんせん）は、北海道河東郡鹿追町にある温泉。大雪山国立公園内にあり、秘湯として知られる。 営業再開後は菅野温泉から然別峡かんの温泉と名称を変更した。「菅野温泉旅館」1軒のみの営業であったが、旧経営者の都合により2008年12月に廃業した。2012年に別会社が買収し、2014年には改装工事が終了し再開業、8月19日から入湯が行われている。再開当初は日帰り入浴だけであったが、その後「こもれび荘」で宿泊できるようになった。",43.3258,143.049
"藺牟田温泉","藺牟田温泉（いむたおんせん）は、鹿児島県薩摩川内市祁答院町（旧国薩摩国）にある温泉。北薩の秘湯として知られる。古くは砂石温泉（さざらしおんせん）と呼ばれていた。",31.8,130.48
"西浦温泉","西浦温泉（にしうらおんせん）は、三河湾へ突出した西浦半島に開発された温泉地である。1953年に開湯した。愛知県蒲郡市には複数の温泉地が有る中で、市内最南端に位置する。",34.7672,137.172
"谷地頭温泉","谷地頭温泉（やちがしらおんせん）は、北海道函館市谷地頭町にある温泉。",41.7519,140.714
"貝取澗温泉","貝取澗温泉（かいとりまおんせん）は、北海道久遠郡せたな町大成区貝取澗にある温泉。",42.189,139.899
"金田一温泉","金田一温泉（きんだいちおんせん）は、岩手県二戸市（旧国陸奥国）にある温泉。馬淵川のほとりにあり、観光宣伝では温泉郷を名乗っている。",40.3207,141.308
"鈍川温泉","鈍川温泉（にぶかわおんせん）は、愛媛県今治市玉川町（旧国伊予国）にある温泉。",33.982,132.935
"雷電温泉","雷電温泉（らいでんおんせん）は、北海道岩内郡岩内町にある温泉。雷電温泉郷とも呼ばれる。2019年までに全ての温泉施設が閉館した。 地名の「雷電」の由来は、アイヌ語の「ライニ（枯れ木）」や「ラエンルム（低い出崎）」が語源になったという説や、奥州平泉を脱したとされる源義経や武蔵坊弁慶にまつわる伝説において、義経がアイヌの酋長チパの娘メヌカと別れる際に「来年戻る」と言い、この「来年」が訛って「雷電」となったという説がある。",42.9242,140.403
"かぶと湯温泉","かぶと湯温泉（かぶとゆおんせん）は、神奈川県厚木市七沢（旧相模国）にある温泉。七沢温泉郷に含まれる。また、旅館は山水楼（さんすいろう）が1軒のみ存在する。",35.4561,139.29
"割石温泉","割石温泉（わりいし おんせん）は、日本の岐阜県飛騨市神岡町割石にある温泉。1976年（昭和51年）11月2日、掘削自噴によって発見された。",36.3666,137.282
"流山温泉","流山温泉（ながれやまおんせん）は、かつて北海道亀田郡七飯町にあった日帰り温泉施設である。『NPO法人大沼・駒ヶ岳ふるさとづくりセンター』が運営していた。当初は北海道企画開発、そして北海道旅客鉄道（JR北海道）グループのジェイ・アールはこだて開発により運営されていた。 温泉名は火山によってもたらされた流れ山地形に由来するもので、火山である駒ヶ岳の麓にあることから命名された。",42.0027,140.719
"湯屋温泉","湯屋温泉（ゆやおんせん）は、岐阜県下呂市（旧飛騨国）にある温泉。",35.9109,137.313
"由仁温泉（ユンニの湯）","由仁温泉（ゆにおんせん）は、北海道夕張郡由仁町にある温泉。ユンニの湯、伏見温泉とも呼ばれる。",42.9977,141.777
"由仁温泉","由仁温泉（ゆにおんせん）は、北海道夕張郡由仁町にある温泉。ユンニの湯、伏見温泉とも呼ばれる。",42.9977,141.777
"白老温泉","白老温泉（しらおいおんせん）は、北海道白老郡白老町にある温泉。",42.5593,141.369
"赤石温泉","赤石温泉（あかいしおんせん）は、山梨県南巨摩郡富士川町（旧国甲斐国）にある温泉。 同名の温泉に南アルプス赤石温泉白樺荘（静岡市葵区）がある。",35.5664,138.393
"赤石温泉 (山梨県)","赤石温泉（あかいしおんせん）は、山梨県南巨摩郡富士川町（旧国甲斐国）にある温泉。 同名の温泉に南アルプス赤石温泉白樺荘（静岡市葵区）がある。",35.5664,138.393
"姥子温泉","姥子温泉（うばこおんせん）は、神奈川県足柄下郡箱根町（旧相模国）にある温泉。姥子の湯。 箱根カルデラの中央火口丘最高峰、神山の北西斜面に位置する。箱根温泉郷を構成する温泉群の中でも歴史の古いもののひとつであり、箱根七湯に当温泉を加えて箱根八湯と称することがある。また、芦ノ湖温泉、蛸川温泉と合わせてと称することがある。噴気地帯の浅層地下水が泉源水となっているため、季節変動の湧出となり冬季に少なく夏季に多くなる。",35.2431,139.009
"有毒温泉","有毒温泉（ゆうどくおんせん）は、北海道上川郡上川町にある温泉。 大雪山国立公園の御鉢平カルデラの底部に位置する。「有毒温泉」の名前は、温泉とともに、強力な毒性を持つ硫化水素の火山ガスが噴出していることによるもの。",43.6803,142.884
"稚内温泉","稚内温泉（わっかないおんせん）は、北海道稚内市富士見地区にある日本最北端の温泉。",45.4214,141.638
"スパワールド","スパワールドは、大阪市浪速区にある温泉をテーマとした娯楽施設。キャッチフレーズは「美と健康の24時間快適空間」。",34.65,135.506
"摂津峡温泉","摂津峡温泉（せっつきょうおんせん）は、大阪府高槻市（旧国摂津国）にある温泉。2013年現在、施設は旅館「山水館」と、同館が経営する日帰り入浴施設「祥風苑」のみである。",35.8725,135.59
"仁賀保温泉","仁賀保温泉（にかほおんせん）とは、秋田県にかほ市三森（旧国出羽国、明治以降の旧羽後国）にある温泉。",39.2833,139.943
"(TOKACHIGAWA MOOR ONSEN)","十勝川温泉（とかちがわおんせん）は、北海道河東郡音更町にある温泉。",42.9342,143.296
"十勝川温泉","十勝川温泉（とかちがわおんせん）は、北海道河東郡音更町にある温泉。",42.9342,143.296
"塩江温泉","塩江温泉（しおのえおんせん）は、香川県高松市塩江町安原上東に湧出する冷鉱泉である。讃岐の奥座敷として知られる。",34.1683,134.085
"天塩川温泉","天塩川温泉（てしおがわおんせん）は、北海道中川郡音威子府村咲来にある温泉。",44.6605,142.254
"高槻樫田温泉","高槻樫田温泉（たかつきかしだおんせん）は、大阪府高槻市田能的谷（旧京都府南桑田郡、1958年に越境合併）にある温泉。源泉井戸の老朽化で温泉成分が温泉法の規定より低くなったため2009年7月より「温泉」の名称を外し、地下水を湧かす公衆浴場として運用していたが、2012年1月より新源泉による温泉の提供を再開した。",34.9423,135.599
"あやべ温泉","あやべ温泉（あやべおんせん）とは、京都府綾部市にある温泉である。",35.3773,135.435
"吹上温泉","吹上温泉（ふきあげおんせん）は、北海道空知郡上富良野町吹上温泉にある温泉である。",43.4315,142.642
"吹上温泉 (北海道)","吹上温泉（ふきあげおんせん）は、北海道空知郡上富良野町吹上温泉にある温泉である。",43.4315,142.642
"川北温泉","川北温泉（かわきたおんせん）は、北海道標津郡標津町川北にある温泉である。",43.7019,144.914
"瀬石温泉","瀬石温泉（せせきおんせん）とは、北海道目梨郡羅臼町瀬石にある温泉（野湯）。カタカナでセセキ温泉と表記する場合もある。海岸線の際にあり満潮時には海没することから、旅行者向けガイドブックへやテレビ番組でしばしば取り上げられる。",44.1781,145.312
"相泊温泉","相泊温泉（あいどまりおんせん）とは、北海道目梨郡羅臼町相泊にある温泉である。",44.1845,145.318
"かもだ岬温泉（旧名称：船瀬温泉）","かもだ岬温泉（かもだみさきおんせん）（旧名称：船瀬温泉）は、徳島県阿南市椿町（旧国阿波国）にある温泉である。",33.8317,134.727
"船瀬温泉","かもだ岬温泉（かもだみさきおんせん）（旧名称：船瀬温泉）は、徳島県阿南市椿町（旧国阿波国）にある温泉である。",33.8317,134.727
"大滝温泉","大滝温泉（おおたきおんせん）は、秋田県大館市（旧国出羽国、明治以降は旧羽後国）にある温泉。",40.2134,140.643
"大滝温泉 (秋田県)","大滝温泉（おおたきおんせん）は、秋田県大館市（旧国出羽国、明治以降は旧羽後国）にある温泉。",40.2134,140.643
"川汲温泉","川汲温泉（かっくみおんせん）は、北海道函館市川汲町にある温泉。",41.8951,140.965
"湯之元温泉","湯之元温泉（ゆのもとおんせん）は宮崎県西諸県郡高原町蒲牟田（旧国日向国）にある温泉。",31.8992,130.994
"湯之元温泉 (宮崎県)","湯之元温泉（ゆのもとおんせん）は宮崎県西諸県郡高原町蒲牟田（旧国日向国）にある温泉。",31.8992,130.994
"鰻温泉","鰻温泉（うなぎおんせん）は、鹿児島県指宿市（旧国薩摩国）の鰻池湖畔にある温泉。",31.2278,130.611
"くろがね温泉","くろがね温泉（くろがねおんせん）は、福島県二本松市（旧国陸奥国、明治以降は岩代国）の長坂国有林内にある温泉。標高1,400 mの山中に位置し、登山道でのみ到達できる。 安達太良山系の鉄山（くろがねやま）の中腹にある「くろがね小屋」に併設された温泉のため、自然発生的に「くろがね温泉」の名称になった。",37.6323,140.293
"岳温泉元湯2号泉","くろがね温泉（くろがねおんせん）は、福島県二本松市（旧国陸奥国、明治以降は岩代国）の長坂国有林内にある温泉。標高1,400 mの山中に位置し、登山道でのみ到達できる。 安達太良山系の鉄山（くろがねやま）の中腹にある「くろがね小屋」に併設された温泉のため、自然発生的に「くろがね温泉」の名称になった。",37.6323,140.293
"伊豆山温泉","伊豆山温泉（いずさんおんせん）は、静岡県熱海市（旧国伊豆国）に存在する温泉。",35.1114,139.077
"大葛温泉","大葛温泉（おおくぞおんせん）は、秋田県大館市比内町大葛（旧国出羽国、明治以降は羽後国）にある温泉。近くに大葛金山がある。",40.1279,140.679
"小薮温泉","小薮温泉（おやぶおんせん）は、愛媛県大洲市肱川町（旧国伊予国）にある温泉。肱川中流にある鹿野川ダムわずかに下流で左岸に流れ込むをさかのぼったところにある。小藪温泉とも表記する。",33.4532,132.669
"東和温泉","東和温泉（とうわおんせん）は、岩手県花巻市東和町に位置する温泉である。",39.3832,141.22
"河内千丈温泉","河内千丈温泉（かわちせんじょうおんせん）は、石川県白山市（旧国加賀国）にある温泉。白山セイモアスキー場に面している。 所在地である同市河内町（旧河内村）内尾は、1183年（寿永2）倶利伽羅峠の戦いで敗れた平家の落人が身を寄せたという伝説があり、これにちなんだ「」が、1981年から市町村合併で河内村が消滅した2004年まで、毎年7月下旬にふるさと保養センター「清流」前の広場にて行われていた。なお、現在は「清流祭り」の名で同時期にイベントが行われている。",36.3481,136.68
"法林寺温泉","法林寺温泉（ほうりんじおんせん）は、富山県南砺市（旧国越中国）にある温泉。",36.5676,136.838
"長万部温泉","長万部温泉（おしゃまんべおんせん）は、北海道山越郡長万部町にある温泉。長万部市街の中央に位置する。",42.5169,140.376
"開聞温泉","開聞温泉（かいもんおんせん）は、鹿児島県指宿市（旧国薩摩国）にある温泉。",31.1696,130.575
"ちゃたん恵み温泉 美浜の湯","ちゃたん恵み温泉（ちゃたんめぐみおんせん）は、沖縄県北谷町美浜の北谷町運動公園内にある温泉。別名、美浜の湯（みはまのゆ）。共立メンテナンスが運営するTerme VILLA ちゅらーゆという日帰り入浴施設があり、サンセットビーチと呼ばれる海水浴場に隣接した屋外温泉プールを併設する。",26.3132,127.756
"ちゃたん恵み温泉","ちゃたん恵み温泉（ちゃたんめぐみおんせん）は、沖縄県北谷町美浜の北谷町運動公園内にある温泉。別名、美浜の湯（みはまのゆ）。共立メンテナンスが運営するTerme VILLA ちゅらーゆという日帰り入浴施設があり、サンセットビーチと呼ばれる海水浴場に隣接した屋外温泉プールを併設する。",26.3132,127.756
"びふか温泉","びふか温泉（びふかおんせん）は、北海道中川郡美深町にある温泉。",44.5586,142.324
"ぽんぴら温泉","ぽんぴら温泉（ぽんぴらおんせん）は、北海道中川郡中川町にある温泉。名称の「ぽんぴら（誉平）」は、アイヌ語で小さな崖を意味する「ポン・ピラ」に由来する。",44.8013,142.076
"ピンネシリ温泉","ピンネシリ温泉（ピンネシリおんせん）は、北海道枝幸郡中頓別町敏音知（ぴんねしり）に作られた温泉施設である。",44.8765,142.212
"上畑温泉","上畑温泉（かみはたおんせん）は、秋田県横手市増田町狙半内字古家沢口にある温泉。",39.1237,140.647
"丸瀬布温泉","丸瀬布温泉（まるせっぷおんせん）は、北海道紋別郡遠軽町丸瀬布上武利にある温泉。",43.9174,143.33
"仲洞爺温泉","仲洞爺温泉（なかとうやおんせん）は、北海道有珠郡壮瞥町にある温泉。",42.6133,140.917
"伊達温泉","伊達温泉（だておんせん）は、北海道伊達市にある温泉。",42.4848,140.851
"初山別温泉","初山別温泉（しょさんべつおんせん）は、北海道苫前郡初山別村豊岬にある温泉。",44.5635,141.777
"利尻富士温泉","利尻富士温泉（りしりふじおんせん）は、北海道利尻郡利尻富士町鴛泊にある温泉。",45.24,141.216
"千走川温泉","千走川温泉（ちはせがわおんせん）は、北海道島牧郡島牧村字江の島にある温泉。",42.6453,140.042
"天塩温泉","天塩温泉（てしおおんせん）は、北海道天塩郡天塩町にある温泉。",44.8766,141.744
"岩尾温泉","岩尾温泉（いわおおんせん）は、北海道増毛郡増毛町岩老にある温泉。",43.7741,141.369
"旭温泉 (北海道)","旭温泉（あさひおんせん）は、北海道天塩郡遠別町字旭にある温泉。",44.6598,141.86
"東八幡平温泉","東八幡平温泉郷（ひがしはちまんたいおんせんきょう）は岩手県八幡平市にある温泉地。国民保養温泉地ではないが、八幡平温泉郷ひとつに数えられる。",39.9115,140.968
"樹海温泉","樹海温泉（じゅかいおんせん）は、北海道勇払郡むかわ町にある温泉。",42.8676,142.158
"沙流川温泉","沙流川温泉（さるかわおんせん）は、北海道沙流郡日高町字富岡にある温泉。",42.8693,142.445
"浜頓別温泉","浜頓別温泉（はまとんべつおんせん）は、北海道枝幸郡浜頓別町にある温泉。",45.1252,142.348
"飛島温泉","飛島温泉（とびしまおんせん）は、愛知県海部郡飛島村にある温泉。 かつては日帰り入浴施設として飛島温泉コーワレジャーランド（含重曹硫化水素泉・源泉温度55℃）が存在していたが、2004年4月に廃業した。現在は村営の飛島村ふれあい温泉のみが営業しているが、元々は村民専用施設だったこともあって規模は小さい。",35.0784,136.803
"黒松内温泉","黒松内温泉（くろまつないおんせん）は、北海道寿都郡黒松内町にある温泉。 株式会社ブナの里振興公社が運営している日帰り入浴施設。",42.6572,140.309
"南濃温泉","南濃温泉（なんのうおんせん）は、岐阜県海津市南濃町羽沢にある温泉。指定管理者の南濃スカイビュースパ水晶の湯が運営している。",35.2123,136.6
"秋田温泉","秋田温泉（あきたおんせん）は、秋田県秋田市にある温泉。",39.75,140.132
"見市温泉","見市温泉（けんいちおんせん）は、北海道二海郡八雲町熊石大谷町にある温泉である。",42.1551,140.041
"辰口温泉","辰口温泉（たつのくちおんせん）は、石川県能美市辰口町にある温泉。",36.445,136.546
"鹿の湯温泉","鹿の湯（しかのゆ）は北海道河東郡鹿追町北瓜幕のユーヤンベツ川河畔に湧く温泉（野湯）。菅野温泉および周辺に点在する野湯とともに然別峡温泉の名称で国民保養温泉地に指定されている。",43.3286,143.044
"鹿の湯","鹿の湯（しかのゆ）は北海道河東郡鹿追町北瓜幕のユーヤンベツ川河畔に湧く温泉（野湯）。菅野温泉および周辺に点在する野湯とともに然別峡温泉の名称で国民保養温泉地に指定されている。",43.3286,143.044
"九酔渓温泉","九酔渓温泉（きゅうすいけいおんせん）は、大分県玖珠郡九重町（旧国豊後国）にある温泉。",33.1731,131.216
"亀ヶ池温泉","亀ヶ池温泉（かめがいけおんせん）は、愛媛県（旧国伊予国）西宇和郡伊方町にある温泉。",33.4652,132.281
"天見温泉","天見温泉（あまみおんせん）は、大阪府河内長野市にある山あいの温泉。奥河内の観光地の一つ。辰野金吾作品を移築した旅館施設「南天苑」がある。",34.3974,135.594
"於福温泉","於福温泉（おふくおんせん）は、山口県美祢市（旧国長門国）にある温泉。近年は道の駅開設の影響もあり、平仮名でおふく温泉と呼ぶこともある。",34.2377,131.208
"紅殻之湯温泉","紅殻之湯温泉（べんがらのゆおんせん）は、大分県竹田市（旧国豊後国）にある温泉。",33.0664,131.278
"縄文真脇温泉","縄文真脇温泉（じょうもんまわきおんせん）は、石川県鳳珠郡能登町にある温泉。",37.3091,137.209
"美霞洞温泉","美霞洞温泉（みかどおんせん）は、香川県仲多度郡まんのう町（旧国讃岐国）にある山あいの温泉。",34.0951,134.008
"苫田温泉","苫田温泉（とまだおんせん）は、岡山県岡山市北区にある温泉地である。",34.6779,133.916
"ぬく森の郷","ぬく森の郷（ぬくもりのさと）は、富山県南砺市小又にある温泉施設。",36.5682,136.814
"七里川温泉","七里川温泉（しちりがわおんせん）は、千葉県君津市にある温泉。",35.2169,140.136
"古遠部温泉","古遠部温泉（ふるとうべおんせん）は、青森県平川市碇ヶ関西碇ヶ関山にある山あいの温泉。",40.4299,140.663
"湯免温泉","湯免温泉（ゆめんおんせん）は、山口県長門市（旧国長門国）にある温泉。",34.3594,131.261
"神居岩温泉","神居岩温泉（かむいわおんせん）は、北海道留萌市にある温泉。",43.9396,141.683
"野地温泉","野地温泉（のぢおんせん）は、福島県福島市土湯温泉町（旧国陸奥国、明治以降は岩代国）にある温泉。",37.6686,140.269
"高増温泉","高増温泉（たかますおんせん）は、青森県北津軽郡板柳町にある温泉。別名不動の湯。",40.7177,140.489
"鷲倉温泉","鷲倉温泉（わしくらおんせん）は、福島県福島市土湯温泉町にある温泉。",37.6686,140.261
"トムラウシ温泉","トムラウシ温泉は、北海道上川郡新得町屈足にある温泉である。",43.4608,142.872
"ヌプントムラウシ温泉","ヌプントムラウシ温泉は、北海道上川郡新得町にある温泉。沼ノ原温泉（ぬまのはらおんせん）ともいう。北海道にある野湯の一つ。地名語源は、アイヌ語で「山の方にあるトムラウシ」の意。トムラウシの語源は、アイヌ語の「ト?ラ・ウ?・イ」（緑色の藻の一種が群生するところ）、あるいは「水垢のあるところ」に由来するとされる。 2017年現在は林道の中間地点が完全崩落、崩落手前に倒木もあり徒歩でしか行く事はできない。水温調整の水バルブが壊れて水温は高めであるが2016年度の台風の影響で湯船が埋まっている可能性有り。また、アクセスする林道も途中にヒグマの糞があったりとヒグマの生息圏内であることから徒歩でのアクセスも十分な注意が必要である。",43.4911,142.958
"上の湯温泉","上の湯温泉（かみのゆおんせん）とは、北海道二海郡八雲町上の湯にある温泉である。",42.1199,140.373
"二本松市","二本松市（にほんまつし）は、福島県中通り北部に位置する市。 『智恵子抄』に詠われた安達太良山と阿武隈川で知られる。",37.5849,140.431
"幕川温泉","幕川温泉（まくかわおんせん）は、福島県福島市土湯温泉町（旧国陸奥国、明治以降は岩代国）にある温泉。",37.6851,140.244
"灘温泉","灘温泉（なだおんせん）は、兵庫県神戸市灘区（旧国摂津国）にある温泉風呂屋（銭湯）。 「六甲道店」と「水道筋店」の2店舗を開設している。なお、六甲道の本店の建物は1932年に竣工。昭和初期のレトロな近代建築である。",34.7136,135.24
"赤湯温泉","赤湯温泉（あかゆおんせん）は、福島県福島市土湯温泉町（旧国陸奥国、明治以降は岩代国）にある温泉。",37.6719,140.262
"赤湯温泉 (福島県)","赤湯温泉（あかゆおんせん）は、福島県福島市土湯温泉町（旧国陸奥国、明治以降は岩代国）にある温泉。",37.6719,140.262
"多気クリスタルタウン","多気クリスタルタウン（たきクリスタルタウン）は、三重県多気郡多気町が進める都市計画およびその商工業複合型施設の名称である。 同町が主体的に進めている事業である。なお、事業地域は仁田、西山、五佐奈、相可の4地区におよぶ。",34.4924,136.55
"支笏湖いとう温泉","支笏湖いとう温泉（しこつこいとうおんせん）は、北海道千歳市の支笏湖北岸にあった温泉。 2013年以降、施設は閉鎖、解体されている。本項で記載のデータ等は旧施設のものである。",42.7822,141.313
"笠松鉱泉","笠松鉱泉（かさまつこうせん）は山形県米沢市大沢地内にある鉱泉。",37.8272,140.215
"今庄365温泉","今庄365温泉（いまじょうさんろくごおんせん）は、福井県南越前町に位置する温泉である。",35.7229,136.149
"山中渓温泉","山中渓温泉（やまなかだにおんせん）は、大阪府阪南市山中渓にある温泉（鉱泉）である。2021年現在、宿泊施設は全て廃業しており一部に廃墟を残すのみとなっている。（後述）",34.3257,135.27
"河野シーサイド温泉","河野シーサイド温泉（こうのシーサイドおんせん）は、福井県南越前町に位置する温泉である。 公共の日帰り入浴施設である。また、越前海岸沿いに立地するため、日本海が目前に広がり、夕日がきれいな温泉として県内外からの入浴が多い。",35.8431,136.046
"花はす温泉","花はす温泉（はなはすおんせん）は、福井県南越前町に位置する温泉である。",35.8093,136.227
"かみゆうべつ温泉","かみゆうべつ温泉（かみゆうべつおんせん）は、北海道紋別郡湧別町中湧別中町にある温泉。",44.1845,143.595
"初谷温泉","初谷温泉（しょやおんせん）は、長野県佐久市内山にある温泉。 炭酸泉で、泡立つ温泉。",36.2243,138.603
"峰温泉","峰温泉（みねおんせん）は、静岡県賀茂郡河津町にある温泉。",34.7569,138.975
"泡の湯温泉","泡の湯温泉（あわのゆおんせん）は、山形県西置賜郡小国町にある温泉。",37.9534,139.698
"秩父別温泉","秩父別温泉（ちっぷべつおんせん）は、北海道雨竜郡秩父別町にある温泉。",43.7651,141.966
"鷹の子温泉","鷹の子温泉（たかのこおんせん）は、愛媛県松山市鷹の子町744（旧国伊予国）に湧出する温泉。 現在、この地にあった湯宿が閉鎖され、オオノ開発株式会社(媛彦温泉の経営母体)によって、新たな施設(ホテルと日帰り温浴施設)が建設された。尚、ホテル名称は「たかのこのホテル」、日帰り湯は、「たかのこの湯」と決定した。(ホテルは、鉄筋コンクリート6階建3000平方メートル、日帰り温浴施設は、鉄筋コンクリート平屋1800平方メートル)尚、たかのこの湯は、源泉の湧出量が豊富なので、掛け流しで使用している。",33.8136,132.808
"内津温泉","内津温泉（うつつおんせん）とは、かつて愛知県春日井市に存在した温泉。既に枯渇している。",35.327,137.066
"南道後温泉","南道後温泉（みなみどうごおんせん）とは、愛媛県松山市中野町に湧出する温泉である。日帰り入浴施設「ていれぎの湯」や、宿泊所を備えた「ていれぎ館」がある。 ていれぎの名は、空海の故事にちなみ、四国伊予地方の方言にもなっている。南道後温泉の近隣に杖ノ淵公園がある。ここには「杖の淵」という泉があり、空海が巡錫で訪れた際、旱魃を見かねて錫杖で地を突き、涌き出たものという。この泉の周辺には刺身のつまとして親しまれる（アブラナ科タネツケバナ属）が自生しており、この草は伊予地方でテイレギと呼ばれる。 
* 源泉 
* 南道後温泉第1源泉 
* 効能 
* 神経痛、筋肉痛、関節痛、運動麻痺、関節のこわばり、打ち身、五十肩、くじき慢性消化器病、痔疾、冷え性、疲労回復、病後回復期、きりきず、やけど、虚弱児童、健康増進",33.7798,132.823
"塩浸温泉","塩浸温泉（しおびたしおんせん、しおひたしおんせん）は、鹿児島県霧島市牧園町宿窪田3606番地（旧国大隅国）に位置する温泉である。鶴の湯とも呼ばれる。新川渓谷温泉郷に属する温泉群のひとつであり、周辺は天降川（新川）水系石坂川の渓谷となっている。国道223号沿いにあり、付近に塩浸発電所がある。2010年（平成22年）の改装オープンに伴い、塩浸温泉龍馬公園（しおひたしおんせんりょうまこうえん）となっている。",31.8345,130.744
"汐の湯温泉","汐の湯温泉（しおのゆおんせん）は大阪府豊能郡能勢町（旧摂津国）にある温泉である。摂津三湯の一つとされる。",34.9609,135.399
"那須どうぶつ王国","那須どうぶつ王国（なすどうぶつおうこく、Nasu Animal Kingdom）は、栃木県那須郡那須町大島1042-1にあるテーマパーク形態の動物園である。",37.1289,140.037
"阿部倉温泉","阿部倉温泉（あべくらおんせん）とは、神奈川県横須賀市阿部倉にある温泉。",35.2568,139.635
"オーロラ温泉","オーロラ温泉（オーロラおんせん）は、北海道川上郡標茶町にある温泉である。",43.3252,144.527
"奥美利河温泉","奥美利河温泉（おくぴりか おんせん）は、北海道瀬棚郡今金町にある温泉である。施設老朽化のため長期休業中。",42.539,140.252
"朝日温泉","朝日温泉（あさひおんせん）は、北海道岩内郡岩内町敷島内にある温泉。 2010年7月の土砂災害により長期休業中である。",42.9163,140.424
"朝日温泉 (北海道)","朝日温泉（あさひおんせん）は、北海道岩内郡岩内町敷島内にある温泉。 2010年7月の土砂災害により長期休業中である。",42.9163,140.424
"美利河温泉","美利河温泉（ぴりか おんせん）は、北海道瀬棚郡今金町字美利河にある温泉である。",42.4683,140.202
"臼別温泉","臼別温泉（うすべつおんせん）は、北海道せたな町大成区にある温泉。",42.2295,139.919
"鹿部温泉","鹿部温泉（しかべおんせん）は北海道茅部郡鹿部町にある温泉。",42.0327,140.82
"佐野天然温泉","佐野天然温泉（さのてんねんおんせん）は、神奈川県横須賀市（旧国相模国）にある温泉。日帰り入浴施設の「湯処 のぼり雲」が所在する。",35.2644,139.668
"葭ヶ浦温泉","葭ヶ浦温泉（よしがうらおんせん）は、石川県珠洲市三崎町にある温泉。",37.5152,137.344
"野比温泉","野比温泉（のびおんせん）は、神奈川県横須賀市（旧国・相模国）野比にある温泉。 三浦半島では市街地やその周辺に温泉が点在しているが、野比温泉も市街地にほど近い場所に湧出する温泉である。",35.2182,139.694
"伏尾温泉","伏尾温泉（ふしおおんせん）は、大阪府池田市伏尾町にある温泉。",34.8572,135.442
"オソウシ温泉","オソウシ温泉（オソウシおんせん）は、北海道上川郡新得町屈足オソウシにある温泉。",43.2323,142.961
"フラヌイ温泉","フラヌイ温泉（フラヌイおんせん）は、北海道空知郡上富良野町にある温泉である。""フラヌイ""は富良野のアイヌ語による古地名。",43.459,142.479
"大船温泉","大船温泉（おおふねおんせん）は、北海道函館市大船町にある温泉。温泉地は上の湯と下の湯に分かれる。",41.9458,140.918
"川又温泉","川又温泉（かわまたおんせん）は、北海道登別市鉱山町の山中にある温泉、野湯。",42.4561,140.999
"平田内温泉","平田内温泉（ひらたないおんせん）は、北海道二海郡八雲町熊石平町にある温泉。合併前は熊石町にあり、熊石温泉とも呼ばれた。",42.1344,139.997
"平田内温泉","平田内温泉（ひらたないおんせん）は、北海道二海郡八雲町熊石平町にある温泉。合併前は熊石町にあり、熊石温泉とも呼ばれた。",42.1614,139.997
"平田内温泉","平田内温泉（ひらたないおんせん）は、北海道二海郡八雲町熊石平町にある温泉。合併前は熊石町にあり、熊石温泉とも呼ばれた。",42.1344,140.006
"平田内温泉","平田内温泉（ひらたないおんせん）は、北海道二海郡八雲町熊石平町にある温泉。合併前は熊石町にあり、熊石温泉とも呼ばれた。",42.1614,140.006
"晩成温泉","晩成温泉（ばんせいおんせん）は、北海道東部の太平洋岸の晩成海岸付近に作られた温泉施設である。温泉成分中にヨウ素が高濃度に含有されている事で知られる。",42.5324,143.483
"瀬戸瀬温泉","瀬戸瀬温泉（せとせおんせん）は、北海道紋別郡遠軽町字湯の里にある温泉。",43.9394,143.429
"八雲温泉","八雲温泉（やくもおんせん）は、北海道二海郡八雲町鉛川にある温泉である。鉛川温泉とも呼ばれる。",42.1863,140.124
"八雲温泉 (北海道)","八雲温泉（やくもおんせん）は、北海道二海郡八雲町鉛川にある温泉である。鉛川温泉とも呼ばれる。",42.1863,140.124
"桜野温泉","桜野温泉（さくらのおんせん）は、かつて北海道二海郡八雲町桜野にあった温泉である。",42.148,140.29
"猿倉温泉","猿倉温泉 （さるくらおんせん）は、秋田県由利本荘市鳥海町猿倉にある温泉である。",39.1682,140.133
"猿倉温泉 (由利本荘市)","猿倉温泉 （さるくらおんせん）は、秋田県由利本荘市鳥海町猿倉にある温泉である。",39.1682,140.133
"ナウマン温泉","ナウマン温泉（ナウマンおんせん）は、北海道中川郡幕別町元忠類111-2を源泉とするアルカリ性単純温泉。 この源泉をひく入浴施設として幕別町が町民のふれあい・健康保持増進・宿泊研修・観光振興のため幕別町忠類白銀町384-1に設置したアルコ236がある。",42.5802,143.314
"浜中町ふれあい交流・保養センター","霧多布温泉（きりたっぷおんせん）は、北海道厚岸郡浜中町が町民の保養・健康づくり・研修・交流、及び災害避難のため運営する施設。正式名称は浜中町ふれあい交流・保養センター、通称は霧多布温泉ゆうゆ。1999年(平成11年)に完成し、温泉の泉質はナトリウム-塩化物泉（アルカリ性低張性温泉）。",43.0767,145.134
"霧多布温泉","霧多布温泉（きりたっぷおんせん）は、北海道厚岸郡浜中町が町民の保養・健康づくり・研修・交流、及び災害避難のため運営する施設。正式名称は浜中町ふれあい交流・保養センター、通称は霧多布温泉ゆうゆ。1999年(平成11年)に完成し、温泉の泉質はナトリウム-塩化物泉（アルカリ性低張性温泉）。",43.0767,145.134
"平家平温泉","平家平温泉（へいけだいらおんせん）は、栃木県日光市（旧国下野国）にある温泉。川俣温泉の一部。",36.8786,139.443
"底倉温泉","底倉温泉（そこくらおんせん）は、神奈川県足柄下郡箱根町（旧相模国）にある温泉。宮ノ下温泉の西隣に位置し、八千代橋からに沿った深い谷にある蛇骨湧泉群を源泉とする。中世の昔から隠れ湯として知られ、江戸時代より痔疾などに効能がある 名湯として箱根七湯のひとつに数えられた。昭和の頃までは3軒ほどの温泉宿があったが、2014年現在は1軒だけである。",35.244,139.057
"多度温泉","多度温泉（たどおんせん）は、三重県桑名市多度町（旧国伊勢国）にある温泉。",35.1272,136.594
"奥水間温泉","奥水間温泉（おくみずまおんせん）は、大阪府貝塚市木積にある温泉。泉州の奥座敷とも呼ばれる。",34.3751,135.403
"桑名湾岸天然温泉 元気村（桑名温泉）","桑名湾岸天然温泉 元気村（くわなわんがんてんねんおんせん げんきむら）は、三重県桑名市福岡町（旧国伊勢国）にある温泉施設。現在休業中。",35.0242,136.708
"桑名天然温泉","桑名湾岸天然温泉 元気村（くわなわんがんてんねんおんせん げんきむら）は、三重県桑名市福岡町（旧国伊勢国）にある温泉施設。現在休業中。",35.0242,136.708
"かつらの湯","かつらの湯（かつらのゆ）は、宮城県白石市小原の白石川沿いにある白石市営の岩風呂温泉。小原温泉遊歩道から徒歩1分ほどそれた渓流沿いにある。",37.9845,140.563
"じゃっぽの湯","じゃっぽの湯（じゃっぽのゆ）は、宮城県柴田郡川崎町の青根温泉街にある日帰り入浴施設。",38.1462,140.535
"女川温泉ゆぽっぽ","女川温泉ゆぽっぽ（おながわおんせんゆぽっぽ）は、宮城県牡鹿郡女川町女川2丁目にある女川町営の温泉である。東日本旅客鉄道（JR東日本）石巻線の終着駅女川駅舎の西側半分の2階に浴槽と休憩所がある。1階は土産物売り場である。",38.4466,141.444
"おじろん","おじろんは、兵庫県美方郡香美町小代区大谷にある温泉。近くにある中佐屋旅館の泉源とともに「小代温泉」とも呼ばれる。",35.4512,134.53
"かもきみの湯","かもきみの湯（かもきみのゆ）は、奈良県御所市葛城地区の水処理施設「アクアセンター」と隣接する天然温泉の日帰り入浴施設。周囲にはアスレチックや遊具の広場、ハーブ園、遊歩道などが整備されて、一帯が公園となっている。",34.4128,135.716
"しそう よい温泉","しそう よい温泉（しそう よいおんせん）は、兵庫県宍粟市山崎町与位にある温泉。弱アルカリ性の単純弱放射能泉の冷鉱泉。日帰り入浴が可能。よい温泉観光株式会社が運営する一軒宿の温泉で、施設内に温泉スタンドなどを併設する。",35.0561,134.567
"安八温泉","安八温泉（あんぱちおんせん）は、岐阜県安八郡安八町にある温泉。",35.3353,136.654
"板取川温泉バーデェハウス","板取川温泉バーデェハウス（いたどりがわおんせんバーデェハウス）は、岐阜県関市板取にある温泉。",35.7347,136.774
"海津温泉","海津温泉（かいづおんせん）は、岐阜県海津市海津町福江569-2にある温泉。海津市の市有施設で有り指定管理者の株式会社三和サービスが運営している。",35.1769,136.659
"安曇野しゃくなげの湯","安曇野しゃくなげの湯（あづみの しゃくなげのゆ）は、長野県安曇野市穂高地区、穂高温泉（穂高温泉郷）にある日帰り温泉施設。",36.348,137.84
"かなや明恵峡温泉","かなや明恵峡温泉（かなやみょうえきょうおんせん）は和歌山県有田郡有田川町修理川にある温泉。日帰り入湯施設がある。有田川の渓谷である明恵峡を見下ろす高台にある。",34.0374,135.274
"しみず温泉","しみず温泉（しみずおんせん）は和歌山県有田郡有田川町清水にある温泉。日帰り入浴施設のしみず温泉健康館と飲食・物販・宿泊施設のしみず温泉あさぎりがある。健康館は旧清水町が合併前の1988年に開業したもので、八角の屋根を八つの亀甲型に組み合わせた特徴的な建物となっている。あさぎりは合併後の2013年にリニューアルオープンした。",34.0829,135.432
"塩津温泉","塩津温泉（しおつおんせん）は、愛知県北設楽郡設楽町清崎にある温泉。",35.0759,137.577
"油壺温泉","油壺温泉（あぶらつぼおんせん）は、神奈川県三浦市（旧国相模国）にある温泉。",35.1611,139.615
"阿曽温泉","阿曽温泉（あそおんせん）は、三重県度会郡大紀町阿曽にある温泉。廃校となった小学校の校舎を再利用した温泉施設が特徴で、一帯は阿曽湯の里（あそゆのさと）として整備されている。",34.3386,136.409
"鷹ノ巣温泉","鷹ノ巣温泉（たかのすおんせん）は、新潟県岩船郡関川村のえちごせきかわ温泉郷にある温泉。",38.0701,139.599
"濃溝温泉","濃溝温泉（のうみぞおんせん）は、千葉県君津市にある天然温泉。",35.1885,140.061
